     2.11           OBSERVATION DATA    G (GPS)             RINEX VERSION / TYPE
MAKERINEX 1.141     BKG/GOWETTZELL+ITU  2011-07-01 00:10    PGM / RUN BY / DATE
ISTA                                                        MARKER NAME
20807M001                                                   MARKER NUMBER
AUTOMATIC           BKG/GOWETTZELL+ITU                      OBSERVER / AGENCY
LP00839             ASHTECH Z-XII3      1K00-1D04           REC # / TYPE / VERS
CR13556             ASH700936D_M    SNOW                    ANT # / TYPE
  4208830.7150  2334850.1024  4171267.0925                  APPROX POSITION XYZ
         .0610         .0000         .0000                  ANTENNA: DELTA H/E/N
     1     1                                                WAVELENGTH FACT L1/2
     9    C1    P1    P2    L1    L2    D1    D2    S1    S2# / TYPES OF OBSERV
    30.000                                                  INTERVAL
  2011     6    30     0     0   30.0000000     GPS         TIME OF FIRST OBS
  2011     6    30    23    59   30.0000000     GPS         TIME OF LAST OBS
     0                                                      RCV CLOCK OFFS APPL
                                                            END OF HEADER
 11  6 30  0  0 30.0000000  0  9 19 32 18  3  6 11 22 14 24
  20972431.839    20972431.068    20972433.886   -26324209.272 9 -20501911.259 9
      -860.587        -670.595         217.000         217.000
  22615303.319    22615302.996    22615308.266   -14202463.098 9 -10779726.159 9
      2674.670        2084.142         181.000         182.000
  25023400.743    25023400.506    25023403.914    -4794588.781 9  -3723653.405 9
     -2683.346       -2090.919         135.000         140.000
  22356563.925    22356563.943    22356568.733   -17125417.924 9 -13303926.722 9
     -3056.996       -2382.087         184.000         184.000
  23012305.724    23012305.624    23012310.378   -14273908.950 9 -11107629.656 9
     -3035.275       -2365.143         174.000         175.000
  21657166.799    21657166.196    21657169.725   -18986671.150 9 -14776253.413 9
      2592.368        2020.026         195.000         195.000
  22097646.723    22097645.716    22097648.321   -20877846.744 9 -15979509.648 9
     -2092.626       -1630.621         198.000         198.000
  21279137.714    21279137.233    21279141.251   -20511846.046 9 -15970833.875 9
       256.722         200.038         206.000         206.000
  22775494.091    22775494.570    22775498.859   -12380602.462 9  -9631713.521 9
      2858.459        2227.356         175.000         177.000
 11  6 30  0  1  0.0000000  0  9 19 32 18  3  6 11 22 14 24
  20977394.179    20977393.495    20977396.673   -26298130.125 9 -20481589.847 9
      -878.154        -684.279         217.000         217.000
  22600059.439    22600059.043    22600063.870   -14282570.049 9 -10842147.171 9
      2665.649        2077.127         181.000         183.000
  25038717.314    25038716.871    25038722.262    -4714097.317 9  -3660932.839 9
     -2682.819       -2090.508         136.000         141.000
  22374038.061    22374037.725    22374042.498   -17033590.723 9 -13232373.074 9
     -3064.930       -2388.262         183.000         184.000
  23029652.620    23029652.268    23029657.971   -14182751.032 9 -11036597.523 9
     -3041.786       -2370.208         174.000         176.000
  21642392.968    21642392.322    21642396.304   -19064306.445 9 -14836748.433 9
      2583.179        2012.857         195.000         195.000
  22109607.404    22109606.466    22109609.288   -20814993.279 9 -15930532.929 9
     -2097.724       -1634.597         198.000         198.000
  21277726.581    21277726.124    21277730.382   -20519261.731 9 -15976612.328 9
       237.499         185.060         206.000         206.000
  22759184.005    22759183.932    22759189.697   -12466310.872 9  -9698499.281 9
      2855.260        2224.883         176.000         177.000
 11  6 30  0  1 30.0000000  0  9 19 32 18  3  6 11 22 14 24
  20982456.964    20982456.311    20982459.368   -26271525.904 9 -20460859.284 9
      -894.754        -697.215         216.000         216.000
  22584867.054    22584866.278    22584872.329   -14362407.326 9 -10904358.039 9
      2657.567        2070.833         182.000         183.000
  25054029.600    25054030.908    25054033.960    -4633626.605 9  -3598228.425 9
     -2681.203       -2089.257         136.000         142.000
  22391557.378    22391556.468    22391561.600   -16941527.876 9 -13160635.792 9
     -3071.871       -2393.683         183.000         184.000
  23047036.061    23047035.627    23047041.076   -14091401.442 9 -10965416.047 9
     -3047.168       -2374.432         174.000         174.000
  21627671.607    21627671.132    21627675.034   -19141666.607 9 -14897029.070 9
      2574.877        2006.384         195.000         195.000
  22121596.661    22121595.616    22121598.195   -20751989.152 9 -15881438.812 9
     -2101.837       -1637.793         198.000         197.000
  21276424.757    21276424.324    21276428.448   -20526101.736 9 -15981942.207 9
       219.197         170.800         206.000         205.000
  22742892.982    22742893.356    22742898.027   -12551923.848 9  -9765210.678 9
      2852.978        2223.087         177.000         178.000
 11  6 30  0  2  0.0000000  0  9 19 32 18  3  6 11 22 14 24
  20987621.667    20987620.697    20987623.361   -26244387.876 9 -20439712.770 9
      -913.604        -711.900         216.000         217.000
  22569727.611    22569727.146    22569732.604   -14441964.958 9 -10966351.000 9
      2647.137        2062.708         182.000         184.000
  25069342.241    25069341.791    25069346.461    -4553167.699 9  -3535533.233 9
     -2681.898       -2089.790         137.000         143.000
  22409121.843    22409121.624    22409126.617   -16849222.580 9 -13088709.596 9
     -3080.979       -2400.763         183.000         183.000
  23064456.777    23064455.816    23064461.629   -13999853.035 9 -10894079.652 9
     -3054.891       -2380.427         174.000         175.000
  21613005.198    21613004.867    21613008.618   -19218740.189 9 -14957086.406 9
      2564.202        1998.077         195.000         195.000
  22133615.770    22133615.216    22133618.150   -20688826.026 9 -15832220.796 9
     -2108.171       -1642.734         197.000         197.000
  21275234.259    21275233.881    21275238.264   -20532356.654 9 -15986816.176 9
       198.611         154.759         205.000         205.000
  22726621.311    22726620.947    22726626.346   -12637431.061 9  -9831839.661 9
      2848.345        2219.477         178.000         178.000
 11  6 30  0  2 30.0000000  0  9 19 32 18  3  6 11 22 14 24
  20992887.602    20992886.678    20992889.058   -26216716.715 9 -20418150.837 9
      -931.702        -725.995         217.000         217.000
  22554641.493    22554640.656    22554646.167   -14521242.098 9 -11028125.394 9
      2637.461        2055.163         183.000         183.000
  25084649.779    25084648.145    25084652.556    -4472721.253 9  -3472847.750 9
     -2681.730       -2089.660         138.000         143.000
  22426732.948    22426732.628    22426737.074   -16756677.341 9 -13016596.430 9
     -3089.291       -2407.227         182.000         182.000
  23081915.907    23081915.523    23081920.689   -13908107.903 9 -10822589.960 9
     -3061.753       -2385.775         173.000         174.000
  21598393.801    21598393.268    21598396.680   -19295524.984 9 -15016918.713 9
      2554.217        1990.306         196.000         196.000
  22145665.289    22145664.614    22145667.410   -20625504.995 9 -15782879.749 9
     -2113.762       -1647.074         197.000         196.000
  21274155.417    21274155.046    21274159.409   -20538026.271 9 -15991234.050 9
       178.774         139.310         205.000         205.000
  22710370.566    22710370.284    22710376.067   -12722831.061 9  -9898385.079 9
      2844.407        2216.421         178.000         179.000
 11  6 30  0  3  0.0000000  0  9 19 32 18  3  6 11 22 14 24
  20998258.004    20998256.911    20998259.246   -26188495.372 9 -20396160.186 9
      -949.324        -739.729         217.000         216.000
  22539612.772    22539612.004    22539617.705   -14600220.394 9 -11089666.924 9
      2628.179        2047.928         183.000         184.000
  25099959.028    25099957.736    25099963.230    -4392270.074 9  -3410158.555 9
     -2681.230       -2089.269         138.000         143.000
  22444391.537    22444391.250    22444396.526   -16663877.083 9 -12944284.547 9
     -3097.014       -2413.245         181.000         181.000
  23099414.664    23099414.373    23099420.002   -13816150.717 9 -10750935.027 9
     -3068.052       -2390.671         173.000         174.000
  21583840.957    21583840.741    21583844.064   -19372001.257 9 -15076510.616 9
      2544.596        1982.811         197.000         198.000
  22157748.626    22157747.687    22157750.150   -20562009.620 9 -15733402.840 9
     -2118.843       -1651.043         196.000         196.000
  21273191.124    21273190.926    21273195.256   -20543092.806 9 -15995181.998 9
       159.392         124.203         205.000         205.000
  22694143.229    22694142.545    22694148.696   -12808104.659 9  -9964832.016 9
      2840.876        2213.677         178.000         180.000
 11  6 30  0  3 30.0000000  0 10 19 32 18 28  3  6 11 22 14 24
  21003727.187    21003726.270    21003729.218   -26159751.148 9 -20373762.096 9
      -966.961        -753.473         216.000         216.000
  22524635.601    22524635.329    22524640.655   -14678925.555 9 -11150995.613 9
      2618.840        2040.659         183.000         183.000
  25115264.629    25115263.899    25115268.669    -4311840.971 9  -3347486.591 9
     -2680.694       -2088.854         137.000         143.000
  25620490.042    25620490.022    25620494.999      -62088.017 9    -44314.635 9
       815.675         634.797          74.000         140.000
  22462094.259    22462094.235    22462098.992   -16570850.960 9 -12871796.668 9
     -3104.724       -2419.253         180.000         180.000
  23116948.940    23116948.863    23116952.539   -13724010.046 9 -10679137.111 9
     -3074.366       -2395.617         172.000         172.000
  21569342.066    21569341.567    21569345.266   -19448193.352 9 -15135881.078 9
      2534.888        1975.242         198.000         198.000
  22169859.688    22169858.416    22169861.095   -20498367.632 9 -15683811.691 9
     -2123.932       -1655.005         197.000         197.000
  21272336.838    21272336.581    21272340.760   -20547583.172 9 -15998680.984 9
       139.961         109.059         205.000         205.000
  22677934.989    22677934.341    22677940.988   -12893277.059 9 -10031200.081 9
      2837.281        2210.893         178.000         178.000
 11  6 30  0  4  0.0000000  0 10 19 32 18 28  3  6 11 22 14 24
  21009297.927    21009296.792    21009300.321   -26130475.033 9 -20350949.534 9
      -983.888        -766.667         215.000         215.000
  22509712.221    22509712.205    22509716.991   -14757347.429 9 -11212103.560 9
      2610.187        2033.899         183.000         184.000
  25130566.935    25130565.877    25130570.360    -4231425.348 9  -3284825.106 9
     -2679.461       -2087.890         138.000         142.000
  25615878.181    25615877.194    25615883.076      -86323.011 9    -63199.117 9
       800.809         624.006         132.000         147.000
  22479840.956    22479840.571    22479844.996   -16477591.653 9 -12799127.080 9
     -3111.662       -2424.689         180.000         181.000
  23134519.191    23134518.041    23134523.308   -13631678.719 9 -10607190.647 9
     -3079.919       -2399.913         172.000         173.000
  21554899.193    21554899.166    21554902.370   -19524089.886 9 -15195021.236 9
      2525.754        1968.122         197.000         197.000
  22181999.649    22181998.994    22182001.260   -20434570.137 9 -15634099.371 9
     -2128.331       -1658.436         197.000         197.000
  21271593.958    21271593.610    21271597.423   -20551487.623 9 -16001723.423 9
       121.203          94.452         205.000         205.000
  22661748.179    22661747.904    22661753.987   -12978337.451 9 -10097480.883 9
      2834.289        2208.540         178.000         178.000
 11  6 30  0  4 30.0000000  0 10 19 32 18 28  3  6 11 22 14 24
  21014962.171    21014961.061    21014964.431   -26100709.997 9 -20327755.992 9
     -1001.254        -780.198         215.000         215.000
  22494835.710    22494834.911    22494840.253   -14835527.522 9 -11273023.098 9
      2601.025        2026.769         184.000         185.000
  25145858.643    25145857.943    25145862.945    -4151065.704 9  -3222207.215 9
     -2678.741       -2087.335         134.000         139.000
  25611347.424    25611347.115    25611351.408     -110131.011 9    -81750.805 9
       785.560         612.127         141.000         148.000
  22497623.768    22497623.107    22497628.127   -16384143.739 9 -12726310.521 9
     -3119.017       -2430.420         180.000         181.000
  23152117.067    23152116.224    23152120.501   -13539200.857 9 -10535129.993 9
     -3085.806       -2404.509         171.000         172.000
  21540505.064    21540504.730    21540508.706   -19599730.480 9 -15253961.943 9
      2516.133        1960.625         196.000         196.000
  22194160.881    22194160.301    22194162.564   -20370660.723 9 -15584299.835 9
     -2133.131       -1662.181         197.000         197.000
  21270954.436    21270954.236    21270958.178   -20554848.156 9 -16004342.030 9
       101.993          79.478         205.000         205.000
  22645575.648    22645575.553    22645580.669   -13063326.521 9 -10163706.111 9
      2830.846        2205.854         178.000         178.000
 11  6 30  0  5  0.0000000  0 10 19 32 18 28  3  6 11 22 14 24
  21020733.729    21020732.637    21020735.311   -26070382.908 9 -20304124.501 9
     -1020.786        -795.415         215.000         215.000
  22480018.227    22480017.698    22480023.094   -14913391.296 9 -11333696.159 9
      2589.650        2017.913         184.000         185.000
  25161154.231    25161154.237    25161157.921    -4070688.574 9  -3159575.712 9
     -2680.082       -2088.372         134.000         140.000
  25606912.035    25606912.239    25606917.806     -133438.050 9    -99912.118 9
       767.977         598.419         138.000         142.000
  22515455.834    22515455.158    22515460.665   -16290435.858 9 -12653291.394 9
     -3128.457       -2437.760         180.000         181.000
  23169756.382    23169756.185    23169761.247   -13446505.111 9 -10462899.561 9
     -3093.873       -2410.821         170.000         170.000
  21526174.012    21526174.021    21526177.467   -19675039.537 9 -15312644.320 9
      2504.238        1951.353         196.000         197.000
  22206357.541    22206356.769    22206359.599   -20306566.898 9 -15534356.605 9
     -2140.068       -1667.583         196.000         196.000
  21270432.451    21270432.184    21270436.436   -20557591.093 9 -16006479.384 9
        80.615          62.821         205.000         205.000
  22629431.021    22629430.727    22629435.557   -13148169.195 9 -10229817.264 9
      2825.113        2201.394         179.000         180.000
 11  6 30  0  5 30.0000000  0 10 19 32 18 28  3  6 11 22 14 24
  21026609.351    21026608.418    21026610.483   -26039508.923 9 -20280066.861 9
     -1037.646        -808.563         216.000         216.000
  22465258.782    22465258.413    22465263.360   -14990952.339 9 -11394133.315 9
      2580.923        2011.101         184.000         184.000
  25176449.533    25176450.210    25176453.329    -3990308.576 9  -3096941.992 9
     -2678.759       -2087.344         133.000         139.000
  25602570.015    25602569.573    25602574.293     -156257.905 9   -117693.795 9
       753.127         586.854         136.000         140.000
  22533333.957    22533333.885    22533338.653   -16196485.214 9 -12580083.090 9
     -3135.169       -2443.012         180.000         181.000
  23187434.163    23187434.216    23187438.832   -13353607.730 9 -10390512.013 9
     -3099.194       -2414.960         168.000         168.000
  21511904.439    21511904.007    21511907.342   -19750029.115 9 -15371077.755 9
      2494.894        1944.065         197.000         198.000
  22218586.316    22218585.442    22218588.238   -20242303.638 9 -15484281.348 9
     -2144.307       -1670.893         196.000         197.000
  21270025.240    21270024.984    21270029.032   -20559730.886 9 -16008146.757 9
        61.864          48.202         205.000         205.000
  22613310.926    22613310.475    22613316.441   -13232878.254 9 -10295824.292 9
      2822.000        2198.955         179.000         180.000
 11  6 30  0  6  0.0000000  0 10 19 32 18 28  3  6 11 22 14 24
  21032581.611    21032580.709    21032582.786   -26008124.615 9 -20255611.571 9
     -1054.263        -821.508         216.000         216.000
  22450550.304    22450549.845    22450555.041   -15068246.199 9 -11454362.286 9
      2572.387        2004.458         183.000         183.000
  25191739.133    25191739.693    25191743.488    -3909962.734 9  -3034334.860 9
     -2677.227       -2086.151         133.000         138.000
  25598312.661    25598313.424    25598319.258     -178626.353 9   -135123.825 9
       738.411         575.383         125.000         130.000
  22551250.876    22551251.103    22551256.491   -16102330.480 9 -12506715.762 9
     -3141.499       -2447.898         180.000         181.000
  23205142.415    23205142.357    23205146.987   -13260547.271 9 -10317997.394 9
     -3104.201       -2418.857         167.000         169.000
  21497689.146    21497688.926    21497691.614   -19824733.202 9 -15429288.739 9
      2485.730        1936.929         199.000         200.000
  22230840.598    22230839.851    22230842.256   -20177908.196 9 -15434103.092 9
     -2148.318       -1674.024         196.000         196.000
  21269725.867    21269725.502    21269729.838   -20561303.760 9 -16009372.379 9
        43.361          33.786         205.000         205.000
  22597210.133    22597210.040    22597215.735   -13317488.566 9 -10361754.396 9
      2819.059        2196.669         179.000         180.000
 11  6 30  0  6 30.0000000  0 10 19 32 18 28  3  6 11 22 14 24
  21038652.301    21038651.369    21038654.107   -25976220.409 9 -20230751.164 9
     -1073.151        -836.223         216.000         215.000
  22435894.563    22435893.621    22435899.062   -15145261.797 9 -11514374.426 9
      2561.535        1996.005         183.000         183.000
  25207023.983    25207023.401    25207028.217    -3829640.770 9  -2971746.363 9
     -2678.095       -2086.827         131.000         136.000
  25594142.866    25594143.156    25594149.389     -200532.671 9   -152193.714 9
       721.497         562.203         119.000         126.000
  22569208.870    22569207.729    22569213.242   -16007963.440 9 -12433182.999 9
     -3150.117       -2454.640         181.000         181.000
  23222884.312    23222883.284    23222887.753   -13167315.458 9 -10245349.248 9
     -3111.450       -2424.505         166.000         167.000
  21483529.873    21483529.546    21483532.735   -19899139.621 9 -15487267.778 9
      2474.206        1927.948         200.000         200.000
  22243122.094    22243120.941    22243123.077   -20113371.292 9 -15383814.608 9
     -2154.576       -1678.890         196.000         195.000
  21269536.704    21269536.157    21269540.327   -20562299.548 9 -16010148.328 9
        22.544          17.567         205.000         205.000
  22581130.585    22581130.739    22581135.892   -13401988.315 9 -10427598.325 9
      2813.779        2192.550         180.000         181.000
 11  6 30  0  7  0.0000000  0 10 19 32 18 28  3  6 11 22 14 24
  21044826.221    21044825.434    21044828.533   -25943773.726 9 -20205468.044 9
     -1089.894        -849.268         215.000         215.000
  22421296.345    22421296.224    22421301.159   -15221974.290 9 -11574150.371 9
      2552.733        1989.143         183.000         183.000
  25222309.491    25222309.980    25222313.303    -3749319.306 9  -2909158.204 9
     -2676.639       -2085.689         130.000         136.000
  25590067.537    25590072.159    25590077.335     -221952.536 9   -168884.521 9
       706.639         550.615         108.000         119.000
  22587210.222    22587210.034    22587215.116   -15913362.708 9 -12359468.154 9
     -3156.465       -2459.576         180.000         181.000
  23240661.691    23240661.108    23240666.588   -13073890.453 9 -10172550.571 9
     -3116.492       -2428.436         165.000         165.000
  21469432.292    21469432.154    21469435.398   -19973222.054 9 -15544994.344 9
      2464.694        1920.546         200.000         200.000
  22255434.270    22255433.137    22255435.516   -20048670.084 9 -15333398.094 9
     -2158.746       -1682.141         195.000         195.000
  21269461.765    21269461.114    21269465.353   -20562694.212 9 -16010455.864 9
         3.833           2.990         205.000         205.000
  22565077.204    22565076.648    22565081.936   -13486351.883 9 -10493336.146 9
      2810.533        2190.026         179.000         180.000
 11  6 30  0  7 30.0000000  0 10 19 32 18 28  3  6 11 22 14 24
  21051097.589    21051096.747    21051100.166   -25910815.912 9 -20179786.634 9
     -1107.146        -862.713         214.000         214.000
  22406750.633    22406750.080    22406754.831   -15298414.008 9 -11633713.753 9
      2543.417        1981.866         183.000         183.000
  25237587.675    25237585.457    25237589.846    -3669029.539 9  -2846594.749 9
     -2675.830       -2085.062         127.000         134.000
  25586077.560    25586080.012    25586094.720     -242916.202 9   -185219.808 9
       691.240         538.638          96.000         114.000
  22605250.020    22605250.116    22605255.128   -15818561.396 9 -12285596.998 9
     -3163.401       -2464.989         180.000         181.000
  23258470.802    23258469.351    23258475.364   -12980305.079 9 -10099626.939 9
     -3122.094       -2432.787         165.000         166.000
  21455391.593    21455391.159    21455394.191   -20047008.954 9 -15602490.622 9
      2454.569        1912.646         200.000         200.000
  22267771.704    22267770.919    22267772.764   -19983835.955 9 -15282878.001 9
     -2163.372       -1685.736         196.000         195.000
  21269495.031    21269494.623    21269498.606   -20562518.798 9 -16010319.182 9
       -15.403         -12.004         205.000         205.000
  22549043.183    22549042.848    22549048.617   -13570608.924 9 -10558990.948 9
      2806.723        2187.055         179.000         179.000
 11  6 30  0  8  0.0000000  0 10 19 32 18 28  3  6 11 22 14 24
  21057468.134    21057467.362    21057470.638   -25877339.027 9 -20153700.754 9
     -1125.452        -876.976         213.000         214.000
  22392257.909    22392257.109    22392263.125   -15374571.775 9 -11693057.432 9
      2533.001        1973.758         183.000         183.000
  25252861.336    25252864.462    25252864.584    -3588763.598 9  -2784049.890 9
     -2676.003       -2085.188         127.000         134.000
  25582180.820    25582180.494    25582186.083     -263414.980 9   -201192.966 9
       674.721         525.746          93.000         114.000
  22623329.531    22623328.964    22623334.547   -15723553.893 9 -12211565.179 9
     -3171.223       -2471.078         180.000         180.000
  23276310.492    23276311.415    23276315.495   -12886553.510 9 -10026573.807 9
     -3128.571       -2437.838         165.000         166.000
  21441408.067    21441407.758    21441411.470   -20120489.823 9 -15659748.438 9
      2443.348        1903.903         200.000         200.000
  22280135.292    22280134.690    22280137.230   -19918861.824 9 -15232248.820 9
     -2169.046       -1690.166         195.000         195.000
  21269638.335    21269637.870    21269641.924   -20561765.237 9 -16009731.997 9
       -35.669         -27.799         205.000         205.000
  22533030.964    22533031.774    22533036.530   -13654749.811 9 -10624555.258 9
      2801.832        2183.241         178.000         179.000
 11  6 30  0  8 30.0000000  0 10 19 32 18 28  3  6 11 22 14 24
  21063947.379    21063946.495    21063949.344   -25843292.546 9 -20127171.032 9
     -1143.857        -891.323         214.000         214.000
  22377829.553    22377828.741    22377833.312   -15450395.568 9 -11752140.886 9
      2522.398        1965.496         183.000         184.000
  25268141.482    25268139.787    25268141.499    -3508470.319 9  -2721483.689 9
     -2676.482       -2085.575         125.000         132.000
  25578376.345    25578377.601    25578333.141     -283397.701 9     -3210.870 9
       658.093         512.796          74.000          74.000
  22641457.758    22641457.424    22641461.890   -15628290.992 9 -12137334.360 9
     -3179.213       -2477.311         180.000         181.000
  23294192.172    23294191.859    23294197.408   -12792586.254 9  -9953352.605 9
     -3135.192       -2443.002         165.000         166.000
  21427493.293    21427493.208    21427496.497   -20193611.347 9 -15716726.242 9
      2431.897        1894.975         200.000         199.000
  22292535.572    22292535.052    22292537.563   -19853697.142 9 -15181471.155 9
     -2174.792       -1694.647         195.000         195.000
  21269901.437    21269901.075    21269905.299   -20560382.106 9 -16008654.242 9
       -56.104         -43.724         205.000         204.000
  22517051.834    22517051.541    22517057.682   -13738721.399 9 -10689987.638 9
      2796.710        2179.260         178.000         179.000
 11  6 30  0  9  0.0000000  0 10 19 32 18 28  3  6 11 22 14 24
  21070520.765    21070519.936    21070522.582   -25808750.135 9 -20100254.880 9
     -1159.218        -903.288         214.000         214.000
  22363450.519    22363449.672    22363454.209   -15525957.238 9 -11811020.079 9
      2514.785        1959.562         183.000         183.000
  25283411.733    25283410.616    25283411.991    -3428222.782 9  -2658953.166 9
     -2673.762       -2083.453         122.000         130.000
  25574658.438    25574659.579    25574674.368     -302935.999 9    -18453.993 9
       644.277         503.746          74.000         107.000
  22659619.712    22659619.124    22659624.389   -15532847.983 9 -12062963.199 9
     -3183.944       -2480.999         180.000         181.000
  23312100.824    23312100.263    23312104.376   -12698478.008 9  -9880021.549 9
     -3138.682       -2445.715         165.000         166.000
  21413633.764    21413633.264    21413637.369   -20266443.828 9 -15773478.815 9
      2423.355        1888.328         199.000         199.000
  22304958.167    22304957.444    22304960.132   -19788415.974 9 -15130602.720 9
     -2177.572       -1696.811         195.000         195.000
  21270270.441    21270270.322    21270274.300   -20558442.207 9 -16007142.639 9
       -73.504         -57.278         205.000         205.000
  22501091.480    22501091.480    22501097.547   -13822594.762 9 -10755343.490 9
      2794.540        2177.542         179.000         179.000
 11  6 30  0  9 30.0000000  0  9 19 32 18  3  6 11 22 14 24
  21077188.801    21077187.676    21077190.628   -25773710.274 9 -20072951.100 9
     -1175.917        -916.299         214.000         214.000
  22349122.063    22349121.570    22349125.760   -15601253.702 9 -11869692.626 9
      2505.846        1952.612         183.000         184.000
  25298672.890    25298672.586    25298676.220    -3348018.463 9  -2596456.259 9
     -2672.382       -2082.378         117.000         127.000
  22677816.670    22677816.290    22677820.489   -15437224.816 9 -11988451.646 9
     -3190.087       -2485.784         180.000         182.000
  23330035.384    23330034.879    23330041.090   -12604228.641 9  -9806580.529 9
     -3143.515       -2449.508         166.000         167.000
  21399829.802    21399830.033    21399833.388   -20338982.699 9 -15830002.608 9
      2413.395        1880.565         199.000         200.000
  22317403.746    22317402.724    22317405.358   -19723016.272 9 -15079641.927 9
     -2181.620       -1699.963         194.000         194.000
  21270746.260    21270745.838    21270749.950   -20555943.146 9 -16005195.316 9
       -92.253         -71.892         205.000         204.000
  22485150.283    22485149.607    22485156.239   -13906366.085 9 -10820619.824 9
      2790.996        2174.814         179.000         180.000
 11  6 30  0 10  0.0000000  0 10 19 32 18  3  6 11 20 22 14 24
  21083951.270    21083950.190    21083953.230   -25738171.590 9 -20045258.624 9
     -1194.221        -930.565         214.000         213.000
  22334844.635    22334844.522    22334848.496   -15676282.263 9 -11928156.412 9
      2495.198        1944.299         183.000         184.000
  25313930.158    25313930.260    25313928.532    -3267856.172 9  -2533992.160 9
     -2672.771       -2082.678         114.000         126.000
  22696047.386    22696047.161    22696051.955   -15341421.614 9 -11913799.809 9
     -3197.700       -2491.714         181.000         182.000
  23347997.271    23347998.075    23348001.824   -12509838.289 9  -9733029.669 9
     -3149.919       -2454.491         166.000         167.000
  21386083.455    21386083.110    21386086.386   -20411223.663 9 -15886294.270 9
      2401.762        1871.502         200.000         200.000
  24835267.336    24835269.984    24835271.294     -253474.583 9   -178729.445 9
      3356.683        2615.599          74.000         141.000
  22329871.364    22329870.812    22329873.605   -19657496.928 9 -15028587.898 9
     -2187.230       -1704.345         194.000         195.000
  21271328.443    21271328.213    21271332.143   -20552883.225 9 -16002810.952 9
      -112.634         -87.765         204.000         204.000
  22469228.810    22469229.163    22469234.295   -13990031.988 9 -10885814.008 9
      2785.768        2170.722         179.000         179.000
 11  6 30  0 10 30.0000000  0 10 19 32 18  3  6 11 20 22 14 24
  21090813.602    21090812.587    21090815.760   -25702109.191 9 -20017158.058 9
     -1209.988        -942.846         213.000         213.000
  22320622.651    22320622.354    22320627.500   -15751016.807 9 -11986391.096 9
      2487.032        1937.944         183.000         183.000
  25329180.136    25329177.675    25329183.189    -3187710.886 9  -2471541.304 9
     -2670.422       -2080.851         115.000         126.000
  22714317.035    22714316.353    22714321.423   -15245415.589 9 -11838989.926 9
     -3202.737       -2495.636         181.000         182.000
  23365990.726    23365991.659    23365996.722   -12415283.559 9  -9659350.720 9
     -3153.581       -2457.327         166.000         168.000
  21372398.049    21372397.646    21372401.455   -20483139.218 9 -15942332.359 9
      2392.541        1864.323         200.000         200.000
  24816106.693    24816105.494    24816113.469     -354150.042 9   -257177.832 9
      3354.919        2614.222         128.000         143.000
  22342367.568    22342365.971    22342368.993   -19591833.848 9 -14977421.880 9
     -2190.373       -1706.789         194.000         195.000
  21272022.229    21272021.949    21272026.138   -20549237.382 9 -15999970.029 9
      -130.486        -101.678         205.000         205.000
  22453332.804    22453333.056    22453338.500   -14073565.394 9 -10950904.958 9
      2783.039        2168.598         179.000         181.000
 11  6 30  0 11  0.0000000  0 10 19 32 18  3  6 11 20 22 14 24
  21097774.816    21097773.815    21097776.864   -25665528.460 9 -19988653.595 9
     -1227.694        -956.650         213.000         213.000
  22306456.333    22306456.364    22306460.819   -15825460.609 9 -12044399.247 9
      2476.929        1930.076         183.000         183.000
  25344425.817    25344425.838    25344427.201    -3107586.287 9  -2409106.573 9
     -2670.171       -2080.666         112.000         124.000
  22732623.537    22732622.978    22732628.142   -15149213.392 9 -11764027.194 9
     -3209.729       -2501.096         181.000         181.000
  23384013.779    23384013.891    23384019.662   -12320570.605 9  -9585548.469 9
     -3159.258       -2461.772         165.000         167.000
  21358774.295    21358774.039    21358777.821   -20554731.112 9 -15998118.241 9
      2381.276        1855.538         200.000         200.000
  24796968.822    24796969.652    24796974.072     -454725.168 9   -335548.103 9
      3351.104        2611.251         136.000         142.000
  22354888.848    22354888.210    22354890.669   -19526031.557 9 -14926147.376 9
     -2195.428       -1710.726         194.000         194.000
  21272826.791    21272826.514    21272830.620   -20545009.806 9 -15996675.802 9
      -150.325        -117.142         205.000         205.000
  22437461.903    22437461.826    22437467.920   -14156968.765 9 -11015894.580 9
      2778.213        2164.845         179.000         181.000
 11  6 30  0 11 30.0000000  0 10 19 32 18  3  6 11 20 22 14 24
  21104836.772    21104835.908    21104838.468   -25628418.606 9 -19959736.832 9
     -1246.201        -971.062         213.000         213.000
  22292347.895    22292347.504    22292352.016   -15899601.303 9 -12102171.196 9
      2465.892        1921.476         183.000         183.000
  25359674.425    25359670.715    25359675.830    -3027471.454 9  -2346679.390 9
     -2670.713       -2081.078         107.000         123.000
  22750969.146    22750969.167    22750974.448   -15052805.769 9 -11688904.394 9
     -3217.369       -2507.026         180.000         180.000
  23402069.192    23402069.677    23402075.144   -12225689.924 9  -9511615.530 9
     -3165.690       -2466.762         165.000         167.000
  21345215.441    21345215.220    21345218.405   -20625985.303 9 -16053640.978 9
      2369.077        1846.031         200.000         201.000
  24777850.870    24777852.616    24777857.649     -555187.745 9   -413830.651 9
      3346.467        2607.640         136.000         142.000
  22367438.962    22367437.796    22367440.246   -19460079.506 9 -14874756.174 9
     -2201.267       -1715.272         193.000         193.000
  21273744.115    21273743.719    21273747.802   -20540189.070 9 -15992919.377 9
      -170.995        -133.237         205.000         205.000
  22421618.245    22421618.238    22421623.635   -14240228.986 9 -11080772.652 9
      2772.494        2160.385         180.000         181.000
 11  6 30  0 12  0.0000000  0 10 19 32 18  3  6 11 20 22 14 24
  21111996.608    21111995.789    21111998.579   -25590793.421 9 -19930418.513 9
     -1262.402        -983.691         213.000         213.000
  22278295.442    22278294.492    22278299.266   -15973451.347 9 -12159716.675 9
      2457.161        1914.685         182.000         183.000
  25374911.364    25374910.750    25374916.878    -2947379.479 9  -2284270.066 9
     -2668.932       -2079.676         107.000         121.000
  22769350.993    22769351.455    22769356.093   -14956207.950 9 -11613633.370 9
     -3222.734       -2511.213         180.000         180.000
  23420153.652    23420153.189    23420158.458   -12130656.607 9  -9437563.656 9
     -3169.792       -2469.958         165.000         166.000
  21331718.676    21331718.531    21331721.449   -20696912.736 9 -16108909.100 9
      2359.117        1838.270         201.000         202.000
  24758752.961    24758753.252    24758757.150     -655549.737 9   -492034.803 9
      3344.083        2605.789         135.000         139.000
  22380014.902    22380014.343    22380017.115   -19393991.428 9 -14823258.975 9
     -2204.843       -1718.058         193.000         193.000
  21274772.077    21274771.655    21274775.378   -20534788.493 9 -15988711.132 9
      -189.359        -147.552         205.000         205.000
  22405798.999    22405798.282    22405805.670   -14323357.333 9 -11145547.963 9
      2769.074        2157.724         180.000         181.000
 11  6 30  0 12 30.0000000  0 10 19 32 18  3  6 11 20 22 14 24
  21119250.395    21119249.444    21119252.315   -25552673.880 9 -19900714.982 9
     -1279.068        -996.676         213.000         212.000
  22264293.727    22264293.183    22264297.344   -16047030.071 9 -12217050.733 9
      2447.926        1907.474         182.000         183.000
  25390146.537    25390148.429    25390148.939    -2867330.865 9  -2221894.566 9
     -2667.664       -2078.701         105.000         119.000
  22787764.938    22787764.132    22787769.515   -14859442.288 9 -11538231.572 9
     -3228.479       -2515.693         179.000         179.000
  23438262.466    23438262.016    23438268.262   -12035492.770 9  -9363410.093 9
     -3174.359       -2473.508         165.000         166.000
  21318280.224    21318279.935    21318283.188   -20767531.492 9 -16163936.692 9
      2348.580        1830.062         202.000         202.000
  24739671.174    24739671.034    24739677.043     -755829.826 9   -570175.235 9
      3341.166        2603.519         134.000         139.000
  22392612.610    22392611.932    22392615.139   -19327788.414 9 -14771672.224 9
     -2208.846       -1721.174         192.000         192.000
  21275906.026    21275905.811    21275909.555   -20528828.575 9 -15984067.034 9
      -208.194        -162.234         205.000         205.000
  22390002.140    22390002.126    22390007.861   -14406372.350 9 -11210234.972 9
      2765.059        2154.596         180.000         182.000
 11  6 30  0 13  0.0000000  0 10 19 32 18  3  6 11 20 22 14 24
  21126603.327    21126602.333    21126605.430   -25514032.567 9 -19870604.872 9
     -1296.599       -1010.336         212.000         212.000
  22250349.415    22250348.302    22250353.282   -16120308.410 9 -12274150.723 9
      2437.696        1899.501         183.000         183.000
  25405375.095    25405371.021    25405380.593    -2787297.725 9  -2159530.974 9
     -2667.448       -2078.550         104.000         119.000
  22806216.002    22806215.189    22806220.662   -14762482.801 9 -11462678.743 9
     -3235.108       -2520.863         178.000         177.000
  23456401.693    23456400.715    23456407.245   -11940172.370 9  -9289134.516 9
     -3179.696       -2477.690         164.000         166.000
  21304906.506    21304905.977    21304909.574   -20837810.775 9 -16218699.756 9
      2337.079        1821.101         202.000         202.000
  24720608.732    24720608.784    24720612.219     -855998.575 9   -648228.788 9
      3337.272        2600.459         131.000         138.000
  22405237.772    22405237.220    22405239.769   -19261442.926 9 -14719974.448 9
     -2213.759       -1725.002         192.000         192.000
  21277151.959    21277151.612    21277155.588   -20522281.043 9 -15978965.054 9
      -227.917        -177.588         205.000         205.000
  22374232.091    22374232.036    22374237.136   -14489244.041 9 -11274810.300 9
      2760.130        2150.751         181.000         182.000
 11  6 30  0 13 30.0000000  0 10 19 32 18  3  6 11 20 22 14 24
  21134051.424    21134050.685    21134054.077   -25474891.386 9 -19840105.256 9
     -1313.196       -1023.267         212.000         212.000
  22236458.164    22236457.304    22236462.458   -16193306.944 9 -12331032.688 9
      2428.464        1892.308         183.000         184.000
  25420597.134    25420594.267    25420625.604    -2707301.504 9      7717.711 9
     -2666.045       -2077.443          74.000          74.000
  22824698.482    22824698.663    22824703.242   -14665353.431 9 -11386993.529 9
     -3240.592       -2525.143         177.000         178.000
  23474566.411    23474566.505    23474570.697   -11844718.499 9  -9214754.928 9
     -3184.003       -2481.040         164.000         166.000
  21291593.653    21291593.459    21291597.049   -20907769.619 9 -16273213.130 9
      2326.441        1812.813         202.000         202.000
  24701565.676    24701564.661    24701572.173     -956076.459 9   -726211.409 9
      3334.200        2598.077         133.000         139.000
  22417885.874    22417885.083    22417888.245   -19194977.040 9 -14668182.863 9
     -2217.709       -1728.084         191.000         191.000
  21278505.434    21278505.235    21278509.183   -20515167.665 9 -15973422.160 9
      -246.747        -192.270         205.000         205.000
  22358485.888    22358485.026    22358491.218   -14571992.110 9 -11339289.297 9
      2755.996        2147.528         182.000         183.000
 11  6 30  0 14  0.0000000  0 10 19 32 18  3  6 11 20 22 14 24
  21141603.057    21141601.930    21141605.277   -25435209.923 9 -19809184.639 9
     -1332.012       -1037.929         212.000         212.000
  22222627.956    22222627.576    22222632.686   -16265983.288 9 -12387663.574 9
      2416.856        1883.273         184.000         185.000
  25435821.367    25435818.207    25435831.625    -2627298.631 9     70033.741 9
     -2667.109       -2075.466          74.000         100.000
  22843221.823    22843221.790    22843226.458   -14568014.665 9 -11311145.142 9
     -3248.472       -2531.285         177.000         177.000
  23492763.298    23492763.512    23492768.751   -11749091.644 9  -9140240.564 9
     -3190.640       -2486.218         164.000         166.000
  21278350.487    21278349.826    21278353.967   -20977364.238 9 -16327442.689 9
      2313.410        1802.653         202.000         202.000
  24682545.468    24682546.999    24682551.882    -1056020.622 9   -804090.056 9
      3328.877        2593.932         131.000         138.000
  22430564.842    22430563.786    22430566.957   -19128349.768 9 -14616265.526 9
     -2223.920       -1732.928         191.000         190.000
  21279974.503    21279974.325    21279978.425   -20507446.954 9 -15967406.021 9
      -267.803        -208.677         205.000         205.000
  22342771.861    22342771.712    22342776.729   -14654573.140 9 -11403638.135 9
      2749.620        2142.563         182.000         183.000
 11  6 30  0 14 30.0000000  0 10 19 32 18  3  6 11 20 22 14 24
  21149253.337    21149252.330    21149255.337   -25395007.774 9 -19777858.294 9
     -1347.557       -1050.042         212.000         211.000
  22208856.079    22208855.928    22208860.267   -16338355.303 9 -12444057.334 9
      2408.509        1876.758         185.000         186.000
  25451042.636    25451039.218    25451057.171    -2547311.626 9    132276.463 9
     -2665.084       -2073.859          74.000         111.000
  22861780.841    22861780.525    22861785.083   -14470487.649 9 -11235150.076 9
     -3252.821       -2534.672         176.000         177.000
  23510989.300    23510989.793    23510994.421   -11653312.544 9  -9065607.563 9
     -3193.848       -2488.705         164.000         166.000
  21265172.564    21265172.605    21265176.389   -21046610.536 9 -16381400.831 9
      2303.539        1794.963         202.000         202.000
  24663549.576    24663548.638    24663553.629    -1155848.990 9   -881878.398 9
      3326.870        2592.372         130.000         137.000
  22443270.546    22443269.493    22443272.636   -19061580.755 9 -14564237.731 9
     -2226.835       -1735.191         190.000         190.000
  21281555.867    21281555.460    21281559.583   -20499137.815 9 -15960931.367 9
      -285.606        -222.546         205.000         205.000
  22327084.786    22327085.231    22327090.515   -14737004.323 9 -11467870.202 9
      2746.332        2140.011         183.000         184.000
 11  6 30  0 15  0.0000000  0 10 19 32 18  3  6 11 20 22 14 24
  21157000.691    21156999.819    21157002.870   -25354293.524 9 -19746132.911 9
     -1365.791       -1064.253         211.000         211.000
  22195140.613    22195140.319    22195145.149   -16410429.887 9 -12500219.337 9
      2397.435        1868.138         186.000         186.000
  25466258.990    25466257.247    25466273.933    -2467346.687 9      2585.452 9
     -2663.831       -2075.689          74.000          74.000
  22880374.078    22880373.228    22880377.283   -14372782.039 9 -11159015.830 9
     -3259.948       -2540.221         176.000         176.000
  23529243.056    23529243.576    23529248.065   -11557390.707 9  -8990863.330 9
     -3199.735       -2493.300         163.000         165.000
  21252061.082    21252060.638    21252064.453   -21115513.865 9 -16435091.729 9
      2290.912        1785.126         202.000         202.000
  24644573.807    24644573.593    24644578.523    -1255568.081 9   -959581.564 9
      3322.018        2588.583         132.000         139.000
  22456002.174    22456000.776    22456003.629   -18994678.222 9 -14512105.891 9
     -2232.448       -1739.576         190.000         191.000
  21283247.571    21283247.455    21283251.347   -20490248.139 9 -15954004.342 9
      -306.116        -238.537         205.000         205.000
  22311426.447    22311426.088    22311432.337   -14819291.383 9 -11531989.973 9
      2740.335        2135.327         183.000         184.000
 11  6 30  0 15 30.0000000  0  9 19 32  3  6 11 20 22 14 24
  21164843.199    21164842.453    21164845.446   -25313081.129 9 -19714019.360 9
     -1382.225       -1077.059         211.000         211.000
  22181479.581    22181478.857    22181483.998   -16482219.732 9 -12556159.455 9
      2388.034        1860.808         186.000         187.000
  22898997.448    22898996.400    22899001.917   -14274913.439 9 -11082754.578 9
     -3265.196       -2544.309         175.000         176.000
  23547520.987    23547520.690    23547525.692   -11461341.608 9  -8916019.940 9
     -3203.807       -2496.464         163.000         165.000
  21239012.477    21239012.160    21239015.569   -21184085.728 9 -16488524.336 9
      2279.970        1776.595         202.000         202.000
  24625618.063    24625616.184    24625622.315    -1355189.635 9  -1037208.706 9
      3318.824        2586.099         132.000         138.000
  22468755.811    22468754.670    22468757.624   -18927656.113 9 -14459880.879 9
     -2236.246       -1742.531         190.000         190.000
  21285046.867    21285046.684    21285050.532   -20480791.733 9 -15946635.697 9
      -324.848        -253.129         205.000         205.000
  22295792.800    22295792.627    22295797.973   -14901446.129 9 -11596006.645 9
      2736.059        2131.989         183.000         185.000
 11  6 30  0 16  0.0000000  0  9 19 32  3  6 11 20 22 14 24
  21172778.684    21172777.808    21172780.905   -25271379.792 9 -19681524.824 9
     -1398.084       -1089.415         211.000         211.000
  22167871.226    22167870.532    22167875.608   -16553732.066 9 -12611883.345 9
      2379.221        1853.935         186.000         187.000
  22917649.855    22917649.328    22917654.129   -14176892.366 9 -11006374.537 9
     -3269.792       -2547.874         174.000         175.000
  23565820.488    23565820.426    23565824.155   -11365175.335 9  -8841085.262 9
     -3207.266       -2499.180         162.000         163.000
  21226025.582    21226025.181    21226028.963   -21252331.533 9 -16541702.877 9
      2269.491        1768.435         202.000         202.000
  24606677.528    24606676.148    24606679.951    -1454720.762 9  -1114765.357 9
      3316.270        2584.108         134.000         140.000
  22481530.821    22481530.287    22481532.464   -18860523.379 9 -14407569.670 9
     -2239.506       -1745.068         190.000         190.000
  21286952.599    21286952.246    21286956.403   -20470777.080 9 -15938832.062 9
      -343.039        -267.306         205.000         204.000
  22280183.066    22280183.130    22280188.680   -14983474.942 9 -11659925.191 9
      2732.272        2129.057         184.000         185.000
 11  6 30  0 16 30.0000000  0  9 19 32  3  6 11 20 22 14 24
  21180807.204    21180806.361    21180809.318   -25229189.944 9 -19648649.619 9
     -1415.226       -1102.769         211.000         211.000
  22154315.735    22154314.886    22154320.825   -16624965.957 9 -12667390.265 9
      2369.033        1846.003         187.000         187.000
  22936330.770    22936331.630    22936335.837   -14078721.008 9 -10929877.374 9
     -3275.615       -2552.422         174.000         174.000
  23584141.912    23584142.214    23584146.972   -11268893.520 9  -8766060.521 9
     -3211.928       -2502.795         161.000         164.000
  21213101.421    21213101.059    21213104.435   -21320248.858 9 -16594625.458 9
      2257.626        1759.193         202.000         203.000
  24587755.254    24587753.360    24587759.424    -1554160.311 9  -1192250.697 9
      3312.287        2581.007         133.000         140.000
  22494326.435    22494325.641    22494327.898   -18793280.400 9 -14355172.547 9
     -2244.050       -1748.607         189.000         189.000
  21288964.609    21288964.240    21288968.254   -20460204.309 9 -15930593.532 9
      -362.501        -282.466         204.000         204.000
  22264598.083    22264598.015    22264603.167   -15065375.730 9 -11723743.973 9
      2727.093        2125.007         185.000         186.000
 11  6 30  0 17  0.0000000  0  9 19 32  3  6 11 20 22 14 24
  21188937.631    21188936.720    21188940.014   -25186464.338 9 -19615356.943 9
     -1432.011       -1115.853         210.000         211.000
  22140822.375    22140821.916    22140827.949   -16695872.009 9 -12722641.727 9
      2359.156        1838.307         187.000         188.000
  22955049.967    22955049.947    22955054.387   -13980352.753 9 -10853226.772 9
     -3281.166       -2556.765         173.000         174.000
  23602495.223    23602494.199    23602499.723   -11172449.658 9  -8690909.546 9
     -3216.267       -2506.182         160.000         161.000
  21200249.194    21200248.931    21200252.708   -21387786.792 9 -16647252.408 9
      2245.985        1750.121         202.000         203.000
  24568856.832    24568856.470    24568861.052    -1653458.638 9  -1269625.983 9
      3308.638        2578.155         130.000         136.000
  22507152.415    22507152.043    22507154.162   -18725879.138 9 -14302652.087 9
     -2248.275       -1751.903         189.000         189.000
  21291091.691    21291091.472    21291095.533   -20449025.180 9 -15921882.519 9
      -381.675        -297.411         204.000         204.000
  22249046.453    22249046.922    22249051.983   -15147098.096 9 -11787423.723 9
      2722.204        2121.195         186.000         188.000
 11  6 30  0 17 30.0000000  0  9 19 32  3  6 11 20 22 14 24
  21197158.791    21197157.806    21197160.835   -25143261.346 9 -19581692.275 9
     -1447.367       -1127.821         210.000         210.000
  22127381.395    22127380.986    22127386.380   -16766507.056 9 -12777682.019 9
      2350.655        1831.672         188.000         189.000
  22973795.217    22973794.976    22973799.780   -13881847.549 9 -10776469.476 9
     -3285.098       -2559.819         172.000         173.000
  23620867.109    23620867.284    23620872.243   -11075903.290 9  -8615678.687 9
     -3219.084       -2508.371         159.000         161.000
  21187458.909    21187458.668    21187462.212   -21455000.309 9 -16699626.565 9
      2235.701        1742.097         202.000         203.000
  24549978.272    24549978.692    24549983.035    -1752672.210 9  -1346935.221 9
      3306.410        2576.426         129.000         137.000
  22519998.152    22519997.244    22519999.353   -18658378.291 9 -14250054.030 9
     -2251.026       -1754.053         190.000         190.000
  21293323.593    21293323.499    21293326.969   -20437297.401 9 -15912743.982 9
      -399.402        -311.224         204.000         204.000
  22233519.081    22233519.174    22233523.939   -15228697.694 9 -11851007.822 9
      2718.598        2118.386         187.000         187.000
 11  6 30  0 18  0.0000000  0  9 19 32  3  6 11 20 22 14 24
  21205472.643    21205471.549    21205474.732   -25099572.844 9 -19547649.293 9
     -1465.024       -1141.580         210.000         210.000
  22113993.301    22113992.728    22113998.006   -16836861.412 9 -12832503.588 9
      2339.823        1823.248         189.000         190.000
  22992566.955    22992567.037    22992571.804   -13783198.731 9 -10699600.285 9
     -3291.353       -2564.696         172.000         173.000
  23639260.509    23639259.721    23639265.788   -10979247.430 9  -8540362.483 9
     -3224.197       -2512.358         158.000         160.000
  21174732.754    21174732.217    21174735.811   -21521878.289 9 -16751739.264 9
      2222.975        1732.187         203.000         203.000
  24531115.461    24531114.800    24531119.512    -1851790.880 9  -1424170.542 9
      3301.737        2572.775         131.000         139.000
  22532863.651    22532862.479    22532864.925   -18590768.938 9 -14197371.429 9
     -2256.108       -1758.007         190.000         190.000
  21295661.504    21295661.012    21295664.921   -20425012.540 9 -15903171.358 9
      -419.444        -326.842         204.000         204.000
  22218016.810    22218016.083    22218021.651   -15310163.884 9 -11914487.954 9
      2712.624        2113.733         186.000         186.000
 11  6 30  0 18 30.0000000  0  9 19 32  3  6 11 20 22 14 24
  21213884.878    21213883.956    21213887.153   -25055365.408 9 -19513201.946 9
     -1482.762       -1155.401         210.000         210.000
  22100665.524    22100664.821    22100670.451   -16906899.811 9 -12887078.947 9
      2328.834        1814.671         189.000         190.000
  23011372.835    23011372.860    23011377.011   -13684374.011 9 -10622594.015 9
     -3297.680       -2569.615         172.000         173.000
  23657680.866    23657679.046    23657685.511   -10882449.409 9  -8464935.525 9
     -3229.340       -2516.380         157.000         160.000
  21162077.005    21162076.727    21162080.416   -21588383.789 9 -16803561.723 9
      2210.078        1722.137         204.000         204.000
  24512280.122    24512279.060    24512284.496    -1950778.980 9  -1501304.131 9
      3296.909        2569.019         138.000         145.000
  22545755.304    22545754.852    22545757.894   -18523017.557 9 -14144578.158 9
     -2261.277       -1762.047         190.000         189.000
  21298111.428    21298111.245    21298114.928   -20412136.478 9 -15893138.060 9
      -439.587        -342.538         203.000         203.000
  22202546.639    22202546.266    22202551.262   -15391460.192 9 -11977835.722 9
      2706.509        2108.961         186.000         186.000
 11  6 30  0 19  0.0000000  0  9 19 32  3  6 11 20 22 14 24
  21222390.908    21222389.867    21222392.682   -25010667.761 9 -19478372.618 9
     -1496.546       -1166.137         210.000         210.000
  22087392.667    22087391.906    22087397.862   -16976649.344 9 -12941429.223 9
      2321.660        1809.081         190.000         190.000
  23030206.492    23030205.585    23030211.160   -13585403.147 9 -10545473.862 9
     -3299.927       -2571.370         171.000         172.000
  23676121.480    23676121.626    23676127.129   -10785539.027 9  -8389421.024 9
     -3230.561       -2517.318         157.000         158.000
  21149487.397    21149487.302    21149490.602   -21654542.421 9 -16855113.894 9
      2201.004        1715.070         204.000         205.000
  24493462.968    24493462.727    24493467.210    -2049662.941 9  -1578356.569 9
      3295.913        2568.248         142.000         146.000
  22558670.120    22558669.572    22558671.805   -18455152.351 9 -14091696.187 9
     -2262.533       -1763.020         190.000         190.000
  21300668.749    21300668.482    21300672.621   -20398697.449 9 -15882666.084 9
      -455.830        -355.192         203.000         203.000
  22187103.732    22187103.320    22187108.524   -15472612.596 9 -12041071.353 9
      2704.191        2107.164         186.000         186.000
 11  6 30  0 19 30.0000000  0  9 19 32  3  6 11 20 22 14 24
  21230982.989    21230982.218    21230985.238   -24965514.620 9 -19443188.357 9
     -1513.267       -1179.167         210.000         210.000
  22074168.458    22074167.852    22074173.411   -17046142.703 9 -12995579.893 9
      2311.601        1801.255         190.000         190.000
  23049060.950    23049060.905    23049065.008   -13486321.898 9 -10468267.723 9
     -3305.138       -2575.426         171.000         172.000
  23694578.233    23694577.780    23694582.131   -10688551.656 9  -8313846.516 9
     -3234.656       -2520.504         157.000         158.000
  21136957.981    21136957.611    21136961.454   -21720385.257 9 -16906419.992 9
      2188.853        1705.600         204.000         204.000
  24474658.824    24474658.331    24474663.277    -2148475.515 9  -1655353.337 9
      3291.886        2565.103         141.000         146.000
  22571599.419    22571598.668    22571601.487   -18387207.516 9 -14038752.162 9
     -2266.755       -1766.301         189.000         188.000
  21303326.482    21303326.630    21303330.522   -20384729.589 9 -15871782.030 9
      -475.004        -370.132         203.000         203.000
  22171681.894    22171681.365    22171687.574   -15553653.038 9 -12104219.747 9
      2698.852        2103.005         186.000         187.000
 11  6 30  0 20  0.0000000  0  9 19 32  3  6 11 20 22 14 24
  21239677.840    21239676.904    21239679.944   -24919823.385 9 -19407584.797 9
     -1532.403       -1194.089         210.000         210.000
  22061009.068    22061008.243    22061013.576   -17115295.995 9 -13049465.584 9
      2299.039        1791.455         190.000         190.000
  23067951.941    23067951.493    23067955.614   -13387049.463 9 -10390912.591 9
     -3312.647       -2581.285         170.000         171.000
  23713064.709    23713063.494    23713068.622   -10591406.178 9  -8238148.791 9
     -3241.057       -2525.500         156.000         157.000
  21124505.048    21124504.832    21124507.946   -21785826.641 9 -16957413.264 9
      2174.262        1694.223         205.000         205.000
  24455885.701    24455885.131    24455890.575    -2247132.210 9  -1732228.633 9
      3285.550        2560.164         143.000         147.000
  22584559.875    22584559.205    22584561.580   -18319100.410 9 -13985681.700 9
     -2273.373       -1771.468         188.000         189.000
  21306101.341    21306100.886    21306104.801   -20370150.090 9 -15860421.382 9
      -496.560        -386.937         203.000         203.000
  22156297.909    22156297.988    22156303.245   -15634496.426 9 -12167214.580 9
      2691.066        2096.934         186.000         187.000
 11  6 30  0 20 30.0000000  0  9 19 32  3  6 11 20 22 14 24
  21248469.510    21248468.527    21248471.309   -24873623.823 9 -19371585.140 9
     -1547.704       -1206.003         210.000         210.000
  22047909.018    22047908.164    22047914.109   -17184136.920 9 -13103107.876 9
